<?xml version="1.0" encoding="UTF-8"?>
<gpx xmlns="http://www.topografix.com/GPX/1/1" xmlns:xsi="http://www.w3.org/2001/XMLSchema-instance" xsi:schemaLocation="http://www.topografix.com/GPX/1/1 http://www.topografix.com/GPX/1/1/gpx.xsd" version="1.1" creator="Hockenheim Motorcycle Tours">
  <metadata>
    <name>Tour6d 03, Day 4: Altmühltal to Dinkelsbühl</name>
    <desc>Through the Altmühltal to Eichstätt, Nördlingen’s meteor crater, and medieval Dinkelsbühl.</desc>
  </metadata>
  <wpt lat="49.452000" lon="11.077000">
    <name>Nürnberg</name>
    <desc>Start</desc>
    <type>Via</type>
  </wpt>
  <wpt lat="49.280000" lon="11.460000">
    <name>Neumarkt i.d. Oberpfalz</name>
    <desc>Eastern Franconia</desc>
    <type>Via</type>
  </wpt>
  <wpt lat="49.106000" lon="11.440000">
    <name>Berching</name>
    <desc>Medieval town</desc>
    <type>Via</type>
  </wpt>
  <wpt lat="48.892000" lon="11.184000">
    <name>Eichstätt</name>
    <desc>Baroque bishop’s town</desc>
    <sym>Restaurant</sym>
    <type>Midpoint</type>
  </wpt>
  <wpt lat="48.897000" lon="10.966000">
    <name>Solnhofen</name>
    <desc>Fossil limestone</desc>
    <type>Via</type>
  </wpt>
  <wpt lat="48.851127" lon="10.488312">
    <name>Nördlingen</name>
    <desc>Ries crater</desc>
    <type>Via</type>
  </wpt>
  <wpt lat="49.067000" lon="10.319000">
    <name>Dinkelsbühl</name>
    <desc>Overnight</desc>
    <sym>Hotel</sym>
    <type>Overnight</type>
  </wpt>
  <rte>
    <name>Altmühltal to Dinkelsbühl</name>
    <desc>~200 km</desc>
    <rtept lat="49.452000" lon="11.077000">
      <name>Nürnberg</name>
    </rtept>
    <rtept lat="49.280000" lon="11.460000">
      <name>Neumarkt i.d. Oberpfalz</name>
    </rtept>
    <rtept lat="49.106000" lon="11.440000">
      <name>Berching</name>
    </rtept>
    <rtept lat="48.892000" lon="11.184000">
      <name>Eichstätt</name>
    </rtept>
    <rtept lat="48.897000" lon="10.966000">
      <name>Solnhofen</name>
    </rtept>
    <rtept lat="48.851127" lon="10.488312">
      <name>Nördlingen</name>
    </rtept>
    <rtept lat="49.067000" lon="10.319000">
      <name>Dinkelsbühl</name>
    </rtept>
  </rte>
  <wpt lat="48.812560" lon="10.431468">
    <name>Alte Bürg</name>
    <type>Optional</type>
    <sym>Castle</sym>
  </wpt>
  <wpt lat="48.842360" lon="10.395170">
    <name>Wasserschloss Trochtelfingen</name>
    <type>Optional</type>
    <sym>Castle</sym>
  </wpt>
  <wpt lat="48.888770" lon="10.473656">
    <name>Altes Schloss Wallerstein</name>
    <type>Optional</type>
    <sym>Castle</sym>
  </wpt>
  <wpt lat="48.870479" lon="10.427197">
    <name>Goldbergmuseum</name>
    <type>Optional</type>
    <sym>Museum</sym>
  </wpt>
  <wpt lat="48.850624" lon="10.435011">
    <name>Geschichte der jüdischen Gemeinde in Pflaumloch</name>
    <type>Optional</type>
    <sym>Museum</sym>
  </wpt>
  <wpt lat="48.818624" lon="10.450219">
    <name>Ipfblick</name>
    <type>Optional</type>
    <sym>Scenic Area</sym>
  </wpt>
  <wpt lat="48.815472" lon="10.459030">
    <name>Aussichtspunkt 5</name>
    <type>Optional</type>
    <sym>Scenic Area</sym>
  </wpt>
</gpx>
