<?xml version="1.0" encoding="UTF-8"?>
<gpx xmlns="http://www.topografix.com/GPX/1/1" xmlns:xsi="http://www.w3.org/2001/XMLSchema-instance" xsi:schemaLocation="http://www.topografix.com/GPX/1/1 http://www.topografix.com/GPX/1/1/gpx.xsd" version="1.1" creator="Hockenheim Motorcycle Tours">
  <metadata>
    <name>Tour3d 03, Day 2: Franconian Wine to Rothenburg</name>
    <desc>South from Würzburg through the Tauber valley to Rothenburg.</desc>
  </metadata>
  <wpt lat="49.792000" lon="9.934000">
    <name>Würzburg</name>
    <desc>Start day 2</desc>
    <type>Via</type>
  </wpt>
  <wpt lat="49.664000" lon="10.063000">
    <name>Ochsenfurt</name>
    <desc>Medieval town</desc>
    <type>Via</type>
  </wpt>
  <wpt lat="49.623000" lon="9.663000">
    <name>Tauberbischofsheim</name>
    <desc>Tauber valley</desc>
    <type>Via</type>
  </wpt>
  <wpt lat="49.493000" lon="9.773000">
    <name>Bad Mergentheim</name>
    <desc>Teutonic Knights</desc>
    <sym>Restaurant</sym>
    <type>Midpoint</type>
  </wpt>
  <wpt lat="49.480019" lon="9.896334">
    <name>Weikersheim</name>
    <desc>Palace gardens</desc>
    <type>Via</type>
  </wpt>
  <wpt lat="49.468000" lon="10.031000">
    <name>Creglingen</name>
    <desc>Riemenschneider altar</desc>
    <type>Via</type>
  </wpt>
  <wpt lat="49.377000" lon="10.179000">
    <name>Rothenburg o.d. Tauber</name>
    <desc>Overnight</desc>
    <sym>Hotel</sym>
    <type>Overnight</type>
  </wpt>
  <rte>
    <name>Franconian Wine to Rothenburg</name>
    <desc>~130 km</desc>
    <rtept lat="49.792000" lon="9.934000">
      <name>Würzburg</name>
    </rtept>
    <rtept lat="49.664000" lon="10.063000">
      <name>Ochsenfurt</name>
    </rtept>
    <rtept lat="49.623000" lon="9.663000">
      <name>Tauberbischofsheim</name>
    </rtept>
    <rtept lat="49.493000" lon="9.773000">
      <name>Bad Mergentheim</name>
    </rtept>
    <rtept lat="49.480019" lon="9.896334">
      <name>Weikersheim</name>
    </rtept>
    <rtept lat="49.468000" lon="10.031000">
      <name>Creglingen</name>
    </rtept>
    <rtept lat="49.377000" lon="10.179000">
      <name>Rothenburg o.d. Tauber</name>
    </rtept>
  </rte>
  <wpt lat="49.408919" lon="9.610986">
    <name>Schloss Neunstetten</name>
    <type>Optional</type>
    <sym>Castle</sym>
  </wpt>
  <wpt lat="49.479177" lon="9.642379">
    <name>Burgruine Boxberg</name>
    <type>Optional</type>
    <sym>Castle</sym>
  </wpt>
  <wpt lat="49.387398" lon="9.636062">
    <name>Johanniter-Museum</name>
    <type>Optional</type>
    <sym>Museum</sym>
  </wpt>
  <wpt lat="49.480282" lon="9.640444">
    <name>Heimatmuseum</name>
    <type>Optional</type>
    <sym>Museum</sym>
  </wpt>
  <wpt lat="49.351531" lon="9.619484">
    <name>Mühlberg</name>
    <type>Optional</type>
    <sym>Summit</sym>
  </wpt>
  <wpt lat="49.327682" lon="9.621030">
    <name>Endberg</name>
    <type>Optional</type>
    <sym>Summit</sym>
  </wpt>
  <wpt lat="49.422823" lon="9.711522">
    <name>Mönchshöhe</name>
    <type>Optional</type>
    <sym>Summit</sym>
  </wpt>
</gpx>
