<?xml version="1.0" encoding="UTF-8"?>
<gpx xmlns="http://www.topografix.com/GPX/1/1" xmlns:xsi="http://www.w3.org/2001/XMLSchema-instance" xsi:schemaLocation="http://www.topografix.com/GPX/1/1 http://www.topografix.com/GPX/1/1/gpx.xsd" version="1.1" creator="Hockenheim Motorcycle Tours">
  <metadata>
    <name>Tour6d 02, Day 1: Into the Northern Vosges</name>
    <desc>Through Pfälzerwald to Wissembourg, Château Fleckenstein, northern Vosges to Obernai.</desc>
  </metadata>
  <wpt lat="49.322000" lon="8.548000">
    <name>Hockenheim</name>
    <desc>Start</desc>
    <sym>Flag, Blue</sym>
    <type>Start</type>
  </wpt>
  <wpt lat="49.317000" lon="8.431000">
    <name>Speyer</name>
    <desc>Cross Rhine</desc>
    <type>Via</type>
  </wpt>
  <wpt lat="49.037000" lon="7.945000">
    <name>Wissembourg</name>
    <desc>Cross into France</desc>
    <type>Via</type>
  </wpt>
  <wpt lat="49.003000" lon="7.788000">
    <name>Lembach</name>
    <desc>Fleckenstein</desc>
    <sym>Restaurant</sym>
    <type>Midpoint</type>
  </wpt>
  <wpt lat="48.952000" lon="7.643000">
    <name>Niederbronn-les-Bains</name>
    <desc>Spa</desc>
    <type>Via</type>
    <sym>Spa</sym>
  </wpt>
  <wpt lat="48.742000" lon="7.362000">
    <name>Saverne</name>
    <desc>Rose City</desc>
    <type>Via</type>
  </wpt>
  <wpt lat="48.462000" lon="7.483000">
    <name>Obernai</name>
    <desc>Overnight</desc>
    <sym>Hotel</sym>
    <type>Overnight</type>
  </wpt>
  <rte>
    <name>Into the Northern Vosges</name>
    <desc>~210 km</desc>
    <rtept lat="49.322000" lon="8.548000">
      <name>Hockenheim</name>
    </rtept>
    <rtept lat="49.317000" lon="8.431000">
      <name>Speyer</name>
    </rtept>
    <rtept lat="49.037000" lon="7.945000">
      <name>Wissembourg</name>
    </rtept>
    <rtept lat="49.003000" lon="7.788000">
      <name>Lembach</name>
    </rtept>
    <rtept lat="48.952000" lon="7.643000">
      <name>Niederbronn-les-Bains</name>
    </rtept>
    <rtept lat="48.742000" lon="7.362000">
      <name>Saverne</name>
    </rtept>
    <rtept lat="48.462000" lon="7.483000">
      <name>Obernai</name>
    </rtept>
  </rte>
  <wpt lat="48.450374" lon="7.517390">
    <name>Château de Landsberg</name>
    <type>Optional</type>
    <sym>Castle</sym>
  </wpt>
  <wpt lat="48.557772" lon="7.459814">
    <name>Observatoire d'Artillerie n°1</name>
    <type>Optional</type>
    <sym>Castle</sym>
  </wpt>
  <wpt lat="48.557264" lon="7.458460">
    <name>Observatoire d'Artillerie n°2</name>
    <type>Optional</type>
    <sym>Castle</sym>
  </wpt>
  <wpt lat="48.562440" lon="7.531376">
    <name>Château de Turckheim</name>
    <type>Optional</type>
    <sym>Castle</sym>
  </wpt>
  <wpt lat="48.560615" lon="7.533193">
    <name>Château Hervé ou Bourcart</name>
    <type>Optional</type>
    <sym>Castle</sym>
  </wpt>
  <wpt lat="48.412946" lon="7.472651">
    <name>Palais du Pain d'épices</name>
    <type>Optional</type>
    <sym>Museum</sym>
  </wpt>
  <wpt lat="48.558697" lon="7.457191">
    <name>Fort de Mutzig</name>
    <type>Optional</type>
    <sym>Museum</sym>
  </wpt>
</gpx>
