<?xml version="1.0" encoding="UTF-8"?>
<gpx xmlns="http://www.topografix.com/GPX/1/1" xmlns:xsi="http://www.w3.org/2001/XMLSchema-instance" xsi:schemaLocation="http://www.topografix.com/GPX/1/1 http://www.topografix.com/GPX/1/1/gpx.xsd" version="1.1" creator="Hockenheim Motorcycle Tours">
  <metadata>
    <name>Tour6d 01, Day 2: Central Black Forest to Schluchsee</name>
    <desc>Through Schiltach and Triberg to Titisee and Schluchsee.</desc>
  </metadata>
  <wpt lat="48.504000" lon="8.378000">
    <name>Baiersbronn</name>
    <desc>Start</desc>
    <type>Via</type>
  </wpt>
  <wpt lat="48.290000" lon="8.339000">
    <name>Schiltach</name>
    <desc>Half-timbered</desc>
    <type>Via</type>
  </wpt>
  <wpt lat="48.133000" lon="8.237000">
    <name>Triberg</name>
    <desc>Waterfalls</desc>
    <sym>Restaurant</sym>
    <type>Midpoint</type>
  </wpt>
  <wpt lat="48.055000" lon="8.208000">
    <name>Furtwangen</name>
    <desc>Clock museum</desc>
    <type>Via</type>
  </wpt>
  <wpt lat="47.903000" lon="8.157000">
    <name>Titisee</name>
    <desc>Iconic lake</desc>
    <type>Via</type>
  </wpt>
  <wpt lat="47.819000" lon="8.179000">
    <name>Schluchsee</name>
    <desc>Overnight</desc>
    <sym>Hotel</sym>
    <type>Overnight</type>
  </wpt>
  <rte>
    <name>Central Black Forest to Schluchsee</name>
    <desc>~210 km</desc>
    <rtept lat="48.504000" lon="8.378000">
      <name>Baiersbronn</name>
    </rtept>
    <rtept lat="48.290000" lon="8.339000">
      <name>Schiltach</name>
    </rtept>
    <rtept lat="48.133000" lon="8.237000">
      <name>Triberg</name>
    </rtept>
    <rtept lat="48.055000" lon="8.208000">
      <name>Furtwangen</name>
    </rtept>
    <rtept lat="47.903000" lon="8.157000">
      <name>Titisee</name>
    </rtept>
    <rtept lat="47.819000" lon="8.179000">
      <name>Schluchsee</name>
    </rtept>
  </rte>
</gpx>
