<?xml version="1.0" encoding="UTF-8"?>
<gpx xmlns="http://www.topografix.com/GPX/1/1" xmlns:xsi="http://www.w3.org/2001/XMLSchema-instance" xsi:schemaLocation="http://www.topografix.com/GPX/1/1 http://www.topografix.com/GPX/1/1/gpx.xsd" version="1.1" creator="Hockenheim Motorcycle Tour Planner">
  <metadata>
    <name>Tour 14: Allerheiligen Waterfalls &amp; Renchtal</name>
    <desc>A stunning loop combining the atmospheric ruins of Allerheiligen monastery, its cascading waterfalls, and the beautiful Renchtal—finished off with a stretch of the legendary B500.</desc>
    <author>
      <name>Hockenheim Motorcycle Tours</name>
    </author>
  </metadata>
  <wpt lat="49.322000" lon="8.548000">
    <name>Hockenheim</name>
    <desc>Start/End</desc>
    <sym>Flag, Blue</sym>
    <type>Start</type>
  </wpt>
  <wpt lat="48.858000" lon="8.204000">
    <name>Rastatt</name>
    <desc>Via Rhine valley</desc>
    <type>Via</type>
  </wpt>
  <wpt lat="48.628000" lon="8.075000">
    <name>Achern</name>
    <desc>Enter hills</desc>
    <type>Via</type>
  </wpt>
  <wpt lat="48.592000" lon="8.113000">
    <name>Kappelrodeck</name>
    <desc>Red wine village</desc>
    <type>Via</type>
    <sym>Winery</sym>
  </wpt>
  <wpt lat="48.570000" lon="8.152000">
    <name>Ottenhöfen</name>
    <desc>Valley end</desc>
    <type>Via</type>
  </wpt>
  <wpt lat="48.537973" lon="8.130656">
    <name>Kloster Allerheiligen</name>
    <desc>Ruined monastery – midpoint</desc>
    <sym>Restaurant</sym>
    <type>Midpoint</type>
  </wpt>
  <wpt lat="48.474000" lon="8.161000">
    <name>Oppenau</name>
    <desc>Renchtal</desc>
    <type>Via</type>
  </wpt>
  <wpt lat="48.427000" lon="8.202000">
    <name>Bad Peterstal-Griesbach</name>
    <desc>Spa village</desc>
    <type>Via</type>
    <sym>Spa</sym>
  </wpt>
  <wpt lat="48.483159" lon="8.287663">
    <name>Kniebis</name>
    <desc>Pass</desc>
    <type>Via</type>
    <sym>Summit</sym>
  </wpt>
  <wpt lat="48.561000" lon="8.221000">
    <name>Ruhestein</name>
    <desc>Join B500</desc>
    <type>Via</type>
  </wpt>
  <wpt lat="48.654527" lon="8.225886">
    <name>Sand</name>
    <desc>B500 north</desc>
    <type>Via</type>
  </wpt>
  <wpt lat="48.761000" lon="8.241000">
    <name>Baden-Baden</name>
    <desc>Spa city</desc>
    <type>Via</type>
    <sym>Spa</sym>
  </wpt>
  <wpt lat="49.322000" lon="8.548000">
    <name>Hockenheim</name>
    <desc>End (via A5)</desc>
    <sym>Flag, Blue</sym>
    <type>End</type>
  </wpt>
  <rte>
    <name>Tour 14: Allerheiligen Waterfalls &amp; Renchtal</name>
    <desc>Schwarzwald | ~320 km | Moderate to Challenging</desc>
    <rtept lat="49.322000" lon="8.548000">
      <name>Hockenheim</name>
    </rtept>
    <rtept lat="48.858000" lon="8.204000">
      <name>Rastatt</name>
    </rtept>
    <rtept lat="48.628000" lon="8.075000">
      <name>Achern</name>
    </rtept>
    <rtept lat="48.592000" lon="8.113000">
      <name>Kappelrodeck</name>
    </rtept>
    <rtept lat="48.570000" lon="8.152000">
      <name>Ottenhöfen</name>
    </rtept>
    <rtept lat="48.537973" lon="8.130656">
      <name>Kloster Allerheiligen</name>
    </rtept>
    <rtept lat="48.474000" lon="8.161000">
      <name>Oppenau</name>
    </rtept>
    <rtept lat="48.427000" lon="8.202000">
      <name>Bad Peterstal-Griesbach</name>
    </rtept>
    <rtept lat="48.483159" lon="8.287663">
      <name>Kniebis</name>
    </rtept>
    <rtept lat="48.561000" lon="8.221000">
      <name>Ruhestein</name>
    </rtept>
    <rtept lat="48.654527" lon="8.225886">
      <name>Sand</name>
    </rtept>
    <rtept lat="48.761000" lon="8.241000">
      <name>Baden-Baden</name>
    </rtept>
    <rtept lat="49.322000" lon="8.548000">
      <name>Hockenheim</name>
    </rtept>
  </rte>
  <wpt lat="48.377085" lon="8.019200">
    <name>Schanze</name>
    <type>Optional</type>
    <sym>Castle</sym>
  </wpt>
  <wpt lat="48.404069" lon="8.016972">
    <name>Kloster Gengenbach</name>
    <type>Optional</type>
    <sym>Monastery</sym>
  </wpt>
  <wpt lat="48.403609" lon="8.015602">
    <name>Museum Haus Löwenberg</name>
    <type>Optional</type>
    <sym>Museum</sym>
  </wpt>
  <wpt lat="48.402992" lon="8.016002">
    <name>Wehrgeschichtliches Museum</name>
    <type>Optional</type>
    <sym>Museum</sym>
  </wpt>
  <wpt lat="48.406473" lon="8.028173">
    <name>Rempeneck</name>
    <type>Optional</type>
    <sym>Scenic Area</sym>
  </wpt>
  <wpt lat="48.394401" lon="8.070608">
    <name>Maileseckle</name>
    <type>Optional</type>
    <sym>Scenic Area</sym>
  </wpt>
  <wpt lat="48.406262" lon="8.072496">
    <name>Katzenstein</name>
    <type>Optional</type>
    <sym>Scenic Area</sym>
  </wpt>
</gpx>
