<?xml version="1.0" encoding="UTF-8"?>
<gpx xmlns="http://www.topografix.com/GPX/1/1" xmlns:xsi="http://www.w3.org/2001/XMLSchema-instance" xsi:schemaLocation="http://www.topografix.com/GPX/1/1 http://www.topografix.com/GPX/1/1/gpx.xsd" version="1.1" creator="Hockenheim Motorcycle Tour Planner">
  <metadata>
    <name>Tour 11: Schwarzwaldhochstraße – The Classic</name>
    <desc>Germany’s most famous motorcycle road. The B500 Schwarzwaldhochstraße runs along the northern Black Forest ridge at over 1000 m altitude, with panoramic views, alpine meadows, and sweeping curves that make this an absolute must-ride.</desc>
    <author>
      <name>Hockenheim Motorcycle Tours</name>
    </author>
  </metadata>
  <wpt lat="49.322000" lon="8.548000">
    <name>Hockenheim</name>
    <desc>Start/End</desc>
    <sym>Flag, Blue</sym>
    <type>Start</type>
  </wpt>
  <wpt lat="49.006000" lon="8.404000">
    <name>Karlsruhe</name>
    <desc>A5 south</desc>
    <type>Via</type>
  </wpt>
  <wpt lat="48.761000" lon="8.241000">
    <name>Baden-Baden</name>
    <desc>Spa city</desc>
    <type>Via</type>
  </wpt>
  <wpt lat="48.721556" lon="8.241260">
    <name>Geroldsau</name>
    <desc>Waterfall</desc>
    <type>Via</type>
  </wpt>
  <wpt lat="48.683338" lon="8.222543">
    <name>Bühlerhöhe</name>
    <desc>Join B500</desc>
    <type>Via</type>
  </wpt>
  <wpt lat="48.654527" lon="8.225886">
    <name>Sand</name>
    <desc>B500 junction</desc>
    <type>Via</type>
  </wpt>
  <wpt lat="48.620000" lon="8.210000">
    <name>Unterstmatt</name>
    <desc>Ridge road</desc>
    <type>Via</type>
  </wpt>
  <wpt lat="48.596000" lon="8.201000">
    <name>Mummelsee (1036 m)</name>
    <desc>Mountain lake – midpoint</desc>
    <sym>Restaurant</sym>
    <type>Midpoint</type>
  </wpt>
  <wpt lat="48.561000" lon="8.221000">
    <name>Ruhestein</name>
    <desc>Nationalpark center</desc>
    <type>Via</type>
  </wpt>
  <wpt lat="48.483159" lon="8.287663">
    <name>Kniebis</name>
    <desc>Pass village</desc>
    <type>Via</type>
  </wpt>
  <wpt lat="48.462000" lon="8.411000">
    <name>Freudenstadt</name>
    <desc>Germany’s largest Marktplatz</desc>
    <type>Via</type>
  </wpt>
  <wpt lat="48.714000" lon="8.741000">
    <name>Calw</name>
    <desc>Hermann Hesse’s birthplace</desc>
    <type>Via</type>
  </wpt>
  <wpt lat="48.891000" lon="8.704000">
    <name>Pforzheim</name>
    <desc>Gold City</desc>
    <type>Via</type>
  </wpt>
  <wpt lat="49.322000" lon="8.548000">
    <name>Hockenheim</name>
    <desc>End</desc>
    <sym>Flag, Blue</sym>
    <type>End</type>
  </wpt>
  <rte>
    <name>Tour 11: Schwarzwaldhochstraße – The Classic</name>
    <desc>Schwarzwald | ~280 km | Moderate to Challenging</desc>
    <rtept lat="49.322000" lon="8.548000">
      <name>Hockenheim</name>
    </rtept>
    <rtept lat="49.006000" lon="8.404000">
      <name>Karlsruhe</name>
    </rtept>
    <rtept lat="48.761000" lon="8.241000">
      <name>Baden-Baden</name>
    </rtept>
    <rtept lat="48.721556" lon="8.241260">
      <name>Geroldsau</name>
    </rtept>
    <rtept lat="48.683338" lon="8.222543">
      <name>Bühlerhöhe</name>
    </rtept>
    <rtept lat="48.654527" lon="8.225886">
      <name>Sand</name>
    </rtept>
    <rtept lat="48.620000" lon="8.210000">
      <name>Unterstmatt</name>
    </rtept>
    <rtept lat="48.596000" lon="8.201000">
      <name>Mummelsee (1036 m)</name>
    </rtept>
    <rtept lat="48.561000" lon="8.221000">
      <name>Ruhestein</name>
    </rtept>
    <rtept lat="48.483159" lon="8.287663">
      <name>Kniebis</name>
    </rtept>
    <rtept lat="48.462000" lon="8.411000">
      <name>Freudenstadt</name>
    </rtept>
    <rtept lat="48.714000" lon="8.741000">
      <name>Calw</name>
    </rtept>
    <rtept lat="48.891000" lon="8.704000">
      <name>Pforzheim</name>
    </rtept>
    <rtept lat="49.322000" lon="8.548000">
      <name>Hockenheim</name>
    </rtept>
  </rte>
</gpx>
